{"records": [
    {
        "title": "希特3D列印",
        "longitude": "121.4679",
        "latitude": "25.0302"
    },
    {
        "title": "瘋3d列印機專賣店",
        "longitude": "120.5696",
        "latitude": "24.2018"
    },
    {
        "title": "飛行海工坊3D ONION",
        "longitude": "120.6449",
        "latitude": "24.1691"
    },
    {
        "title": "D.D.D 3D創印",
        "longitude": "120.3128",
        "latitude": "22.6374"
    },
    {
        "title": "三帝瑪3DMart",
        "longitude": "121.5065",
        "latitude": "25.0073"
    },
    {
        "title": "QTS 品測科技",
        "longitude": "121.0312",
        "latitude": "24.8199"
    },
    {
        "title": "羽耀科技股份有限公司",
        "longitude": "120.6553",
        "latitude": "24.1374"
    },
    {
        "title": "達億3D列印",
        "longitude": "121.4848",
        "latitude": "25.0719"
    },
    {
        "title": "睿坊國際有限公司",
        "longitude": "121.5749",
        "latitude": "25.0776"
    }
]}